{
    "images": [
      {
        "name": "Rybník Amerika III",
        "description": "Lavička s erbom Trnovec nad Váhom pri rybníku",
        "url": "/photos/amerika.jpg",
        "timestamp": "2023-10-05",
        "coordinates": {
            "latitude":  48.14431,
            "longitude": 17.91958
          },
          "location":"Trnovec nad Váhom"

      },
      {
        "name": "Dom ľudového bývania ",
        "description": "Starý domček v Šali",
        "url": "/photos/dom.jpg",
        "timestamp": "2023-10-06",
        "coordinates": {
            "latitude": 48.15230,
            "longitude": 17.87364
          },
          "location":"Šaľa"

      },
      {
        "name": "FEI STU",
        "description": "Fakulta elektrotechniky a informatiky",
        "url": "/photos/FEI.jpg",
        "timestamp": "2023-11-04",
        "coordinates": {
            "latitude": 48.15180,
            "longitude": 17.07346
          },
          "location":"Karlova Ves"
      },
      {
        "name": "FIIT STU",
        "description": "Fakulta informatiky a informačných technológií",
        "url": "/photos/FIIT.jpg",
        "timestamp": "2023-11-04",
        "coordinates": {
            "latitude": 48.15424,
            "longitude": 17.07199
          },
          "location":"Karlova Ves"

      },
      {
        "name": "Kaštieľ v Šali ",
        "description": " Najstaršia a najhodnotnejšia kultúrno-historická pamiatka Šale",
        "url": "/photos/kastiel.jpg",
        "timestamp": "2023-10-06",
        "coordinates": {
            "latitude": 48.15214,
            "longitude": 17.87679
          },
          "location":"Šaľa"

      },
      {
        "name": "Kostol v Trnovci Nad Váhom",
        "description": "Kostol Premenenia Pána",
        "url": "/photos/kostol.jpg",
        "timestamp": "2023-10-05",
        "coordinates": {
            "latitude": 48.15163,
            "longitude": 17.92686
          },
          "location":"Trnovec nad Váhom"

      },
      {
        "name": "Michalská brána",
        "description": "Je jediná zachovaná brána z pôvodných štyroch v bratislavskom mestskom opevnení.",
        "url": "/photos/Michalska.jpg",
        "timestamp": "2023-11-07",
        "coordinates": {
            "latitude": 48.14544,
            "longitude": 17.10672
          },
          "location":"Staré Mesto"

      },
      {
        "name": "ŠD Mladosť",
        "description": "Internát STU v Mlynskej Doline.",
        "url": "/photos/Mladost.jpg",
        "timestamp": "2023-11-04",
        "coordinates": {
            "latitude": 48.1585,
            "longitude": 17.06428
          },
          "location":"Karlova Ves"
      },
      {
        "name": "Spojená škola Nivy 2 Šaľa",
        "description": "Fontána pred spojenou školou,ktorá naposledy videla vodu za dávnych čias socializmu.",
        "url": "/photos/Nivy.jpg",
        "timestamp": "2023-10-06",
        "coordinates": {
            "latitude": 48.16827,
            "longitude": 17.88786
          },
          "location":"Šaľa"

      },
      {
        "name": "Prezidentský  palác",
        "description": "Nazývaný aj Grasalkovičov palác.",
        "url": "/photos/palac.jpg",
        "timestamp": "2023-11-07",
        "coordinates": {
            "latitude": 48.14878,
            "longitude": 17.10764
          },
          "location":"Staré Mesto"


      },
      {
        "name": "Most SNP",
        "description": "Prezývaný aj ako UFO most.",
        "url": "/photos/SNP.jpg",
        "timestamp": "2023-11-07",
        "coordinates": {
            "latitude": 48.13838,
            "longitude": 17.10454

          },
          "location":"Staré Mesto"
      },
      {
        "name": "Zvonica v Trnovci nad Váhom",
        "description": "Barokovo-klasicistická zvonica postavená v druhej polovici 18. storočia.",
        "url": "/photos/zvonica.jpg",
        "timestamp": "2023-11-07",
        "coordinates": {
            "latitude": 48.14722,
            "longitude": 17.92654
          },
          "location":"Trnovec nad Váhom"

      }
    ]
  }